{
  "cities": [
    {
      "cityName": "Lisbon",
      "country": "Portugal",
      "emoji": "ðŸ‡µðŸ‡¹",
      "date": "2027-10-31T15:59:59.138Z",
      "notes": "My favorite city so far!",
      "position": {
        "lat": 38.727881642324164,
        "lng": -9.140900099907554
      },
      "id": "73930385"
    },
    {
      "cityName": "Madrid",
      "country": "Spain",
      "emoji": "ðŸ‡ªðŸ‡¸",
      "date": "2027-07-15T08:22:53.976Z",
      "notes": "",
      "position": {
        "lat": 40.46635901755316,
        "lng": -3.7133789062500004
      },
      "id": "17806751"
    },
    {
      "cityName": "Berlin",
      "country": "Germany",
      "emoji": "ðŸ‡©ðŸ‡ª",
      "date": "2027-02-12T09:24:11.863Z",
      "notes": "Amazing ðŸ˜ƒ",
      "position": {
        "lat": 52.53586782505711,
        "lng": 13.376933665713324
      },
      "id": "98443197"
    },
    {
      "cityName": "Namangan",
      "country": "Uzbekistan",
      "emoji": "ðŸ‡©ðŸ‡ºðŸ‡¿",
      "date": "2027-02-12T09:24:11.863Z",
      "notes": "Cool ðŸ˜Ž",
      "position": {
        "lat": 41.0058,
        "lng": 71.6436
      },
      "id": "19970803"
    },
    {
      "id": "1873",
      "cityName": "Slavyanka",
      "country": "Russian Federation (the)",
      "emoji": "ðŸ‡·ðŸ‡º",
      "date": "2024-05-13T15:35:44.266Z",
      "notes": "Test",
      "position": {
        "lat": "42.549031008362526",
        "lng": "130.827202167234"
      }
    },
    {
      "id": "373d",
      "cityName": "Azuara",
      "country": "Spain",
      "emoji": "ðŸ‡ªðŸ‡¸",
      "date": "2024-05-13T15:40:12.045Z",
      "notes": "",
      "position": {
        "lat": "41.244772343082076",
        "lng": "-0.8349609375000001"
      }
    },
    {
      "id": "3410",
      "cityName": "Satama-Sokoura",
      "country": "Cote d'Ivoire",
      "emoji": "ðŸ‡¨ðŸ‡®",
      "date": "2024-05-13T15:40:39.688Z",
      "notes": "",
      "position": {
        "lat": "7.885147283424331",
        "lng": "-4.394531250000001"
      }
    },
    {
      "id": "7fba",
      "cityName": "Satama-Sokoura",
      "country": "Cote d'Ivoire",
      "emoji": "ðŸ‡¨ðŸ‡®",
      "date": "2024-05-13T15:40:39.688Z",
      "notes": "",
      "position": {
        "lat": "7.885147283424331",
        "lng": "-4.394531250000001"
      }
    },
    {
      "id": "9a60",
      "cityName": "Satama-Sokoura",
      "country": "Cote d'Ivoire",
      "emoji": "ðŸ‡¨ðŸ‡®",
      "date": "2024-05-13T15:40:39.688Z",
      "notes": "",
      "position": {
        "lat": "7.885147283424331",
        "lng": "-4.394531250000001"
      }
    },
    {
      "id": "53d8",
      "cityName": "Qibray",
      "country": "Uzbekistan",
      "emoji": "ðŸ‡ºðŸ‡¿",
      "date": "2024-05-13T15:46:07.562Z",
      "notes": "Test",
      "position": {
        "lat": "41.35207214451295",
        "lng": "69.46105957031251"
      }
    }
  ]
}